{
  "records": [
    {
      "ID":"A",
      "Name": "Alfreds Futterkiste",
      "City": "Berlin",
      "Country": "Germany",
      "lat":52.520007,
      "long":13.404954,
      "val":78

    },
    {
      "ID":"B",
      "Name": "Ana Trujillo Emparedados y helados",
      "City": "México D.F.",
      "Country": "Mexico",
      "lat":19.246470,
      "long":-99.10135,
      "val":56

    },
    {
      "ID":"C",
      "Name": "Antonio Moreno Taquería",
      "City": "México D.F.",
      "Country": "Mexico",
      "lat":19.246470,
      "long":-99.10135,
      "val":65

    },
    {
      "ID":"D",
      "Name": "Around the Horn",
      "City": "London",
      "Country": "UK",
      "lat":51.507351,
      "long":-0.127758,
      "val":45

    },
    {
      "ID":"E",
      "Name": "B's Beverages",
      "City": "London",
      "Country": "UK",
      "lat":51.507351,
      "long":-0.127758,
      "val":21

    },
    {
      "ID":"F",
      "Name": "Berglunds snabbköp",
      "City": "Luleå",
      "Country": "Sweden",
      "lat":65.584819,
      "long":22.156703,
      "val":32

    },
    {
      "ID":"G",
      "Name": "Blauer See Delikatessen",
      "City": "Mannheim",
      "Country": "Germany",
      "lat":49.487459,
      "long":8.466039,
      "val":45

    },
    {
      "ID":"H",
      "Name": "Blondel père et fils",
      "City": "Strasbourg",
      "Country": "France",
      "lat":48.573405,
      "long":7.752111,
      "val":98

    },
    {
      "ID":"I",
      "Name": "Bólido Comidas preparadas",
      "City": "Madrid",
      "Country": "Spain",
      "lat":40.416775,
      "long":-3.703790,
      "val":54

    },
    {
      "ID":"J",
      "Name": "Bon app'",
      "City": "Marseille",
      "Country": "France",
      "lat":43.296482,
      "long":5.369780,
      "val":75

    },
    {
      "ID":"K",
      "Name": "Bottom-Dollar Marketse",
      "City": "Tsawassen",
      "Country": "Canada",
      "lat":49.018038,
      "long":-123.081825,
      "val":34

    },
    {
      "ID":"L",
      "Name": "Cactus Comidas para llevar",
      "City": "Buenos Aires",
      "Country": "Argentina",
      "lat":-34.603684,
      "long":-58.381559,
      "val":51

    },
    {
      "ID":"M",
      "Name": "Centro comercial Moctezuma",
      "City": "México D.F.",
      "Country": "Mexico",
      "lat":19.246470,
      "long":-99.10135,
      "val":78

    },
    {
      "ID":"N",
      "Name": "Chop-suey Chinese",
      "City": "Bern",
      "Country": "Switzerland",
      "lat":46.947974,
      "long":7.447447,
      "val":69

    },
    {
      "ID":"O",
      "Name": "Comércio Mineiro",
      "City": "São Paulo",
      "Country": "Brazil",
      "lat":-23.550520,
      "long":-46.633309,
      "val":37

    }
  ]
}